[
    {
        "externalId": "6247",
        "name": "Italia Va in Rete SHOP",
        "category": "Informatica e telecomunicazioni",
        "rating": 1,
        "cashback": "5",
        "image": "https:\/\/v3demo.fidelynet.it\/files\/dev\/shops\/6247\/20240721134156shopImagelogo.png",
        "address": "VIA BORIS GIULIANO, 6",
        "city": "ENNA",
        "meta": null,
        "lat": 37.5527655,
        "long": 14.2991574,
        "openingHours": "Lun-Ven: 9:00-18:00, Sab: 9:00-12:00, Dom: Chiuso",
        "description": "Italia Va in Rete Shop è il punto di riferimento per i servizi di digital marketing. Offriamo soluzioni innovative per aiutare le aziende a crescere online, inclusi SEO, SEM, gestione dei social media, e molto altro.",
        "zipCode": "94100",
        "website": "https:\/\/italiavainrete.it\/",
        "facebook": "https:\/\/www.facebook.com\/italiavainrete\/",
        "instagram": ""
    },
    {
        "externalId": "6645",
        "name": "La Bottega del Centro",
        "category": "Abbigliamento",
        "rating": 1,
        "cashback": "20",
        "image": "https:\/\/v3demo.fidelynet.it\/files\/dev\/shops\/6645\/20240721135211shopImagela-bottega-del-centro.png",
        "address": "VIA  Roma, 10",
        "city": "",
        "meta": null,
        "lat": 44.3033391,
        "long": 9.2090264,
        "openingHours": "Lun-Sab: 10:00-19:00, Dom: Chiuso",
        "description": "La Bottega del Centro è il tuo negozio di fiducia per abbigliamento di qualità. Offriamo una vasta gamma di capi per tutte le occasioni, dalle ultime tendenze moda agli stili classici.",
        "zipCode": "16034",
        "website": "https:\/\/www.labottegadelcentro.com",
        "facebook": "https:\/\/www.facebook.com\/labottegadelcentro",
        "instagram": ""
    },
    {
        "externalId": "6646",
        "name": "Gioielleria Positano",
        "category": "Orologi, gioielli ed articoli da regalo",
        "rating": 1,
        "cashback": "10",
        "image": "https:\/\/v3demo.fidelynet.it\/files\/dev\/shops\/6646\/20240721140229shopImagegioielleria-positano.png",
        "address": "Via Dei Mulini, 8",
        "city": "POSITANO",
        "meta": null,
        "lat": 40.6296345,
        "long": 14.4863573,
        "openingHours": "Lun-Sab: 10:00-19:00, Dom: Chiuso",
        "description": "Gioielleria Positano offre una selezione esclusiva di gioielli artigianali, ispirati alla bellezza della Costiera Amalfitana. Ogni pezzo è unico e realizzato con materiali preziosi.",
        "zipCode": "84017",
        "website": "https:\/\/www.gioielleriapositano.com",
        "facebook": "https:\/\/www.facebook.com\/gioielleriapositano",
        "instagram": ""
    },
    {
        "externalId": "6647",
        "name": "Vetro di Venezia",
        "category": "Orologi, gioielli ed articoli da regalo",
        "rating": 1,
        "cashback": "10",
        "image": "https:\/\/v3demo.fidelynet.it\/files\/dev\/shops\/6647\/20240721140757shopImagevetro-di-venezia.png",
        "address": "Calle Delle Botteghe, 12",
        "city": "LIDO",
        "meta": null,
        "lat": 45.4336198,
        "long": 12.3251944,
        "openingHours": "Lun-Sab: 10:00-19:00, Dom: Chiuso",
        "description": "Vetro di Venezia è specializzato nella produzione e vendita di oggetti in vetro soffiato, una tradizione secolare che rende ogni pezzo un'opera d'arte unica.",
        "zipCode": "30126",
        "website": "https:\/\/www.vetrodivenezia.com",
        "facebook": "https:\/\/www.facebook.com\/vetrodivenezia",
        "instagram": ""
    },
    {
        "externalId": "6648",
        "name": "Sapori di Matera",
        "category": "Alimentazione",
        "rating": 1,
        "cashback": "15",
        "image": "https:\/\/v3demo.fidelynet.it\/files\/dev\/shops\/6648\/20240721141316shopImagesapori-di-matera.png",
        "address": "Via Ridola, 15",
        "city": "MATERA",
        "meta": null,
        "lat": 40.6642896,
        "long": 16.6092525,
        "openingHours": "Lun-Dom: 09:00-18:00",
        "description": "Sapori di Matera offre una selezione di prodotti tipici lucani, dai formaggi ai salumi, passando per il pane di Matera IGP. Scopri i veri sapori della Basilicata.",
        "zipCode": "75100",
        "website": "https:\/\/www.saporidimatera.com",
        "facebook": "https:\/\/www.facebook.com\/saporidimatera",
        "instagram": ""
    },
    {
        "externalId": "6649",
        "name": "Ceramiche di Deruta",
        "category": "Arredamento",
        "rating": 1,
        "cashback": "20",
        "image": "https:\/\/v3demo.fidelynet.it\/files\/dev\/shops\/6649\/20240721141726shopImageceramichederuta.png",
        "address": "Via Tiberina, 5",
        "city": "DERUTA",
        "meta": null,
        "lat": 43.0045927,
        "long": 12.4271513,
        "openingHours": "Lun-Sab: 09:00-18:00, Dom: Chiuso",
        "description": "Ceramiche di Deruta produce e vende ceramiche artistiche, seguendo le antiche tradizioni umbre. Ogni pezzo è dipinto a mano e unico nel suo genere.",
        "zipCode": "06053",
        "website": "https:\/\/www.ceramichedideruta.com",
        "facebook": "https:\/\/www.facebook.com\/ceramichedideruta",
        "instagram": ""
    }
]
